[{"item_id": 1676406, "category": ["attraction"], "name": "Credicard Hall", "longitude": -46.7239107, "latitude": -23.6482599}, {"item_id": 2738162, "category": ["attraction"], "name": "Marquise", "longitude": -46.6572623, "latitude": -23.5863843}, {"item_id": 4602996, "category": ["attraction"], "name": "Mercado Municipal de São Paulo", "longitude": -46.6294216, "latitude": -23.5417397}, {"item_id": 7398292, "category": ["attraction"], "name": "Parque Trianon", "longitude": -46.6574127, "latitude": -23.5623755}, {"item_id": 7535031, "category": ["attraction"], "name": "Predio da Moda", "longitude": -46.6698484, "latitude": -23.532272}, {"item_id": 8551850, "category": ["attraction"], "name": "EMEF Ulysses da Sylveira Guimaraes", "longitude": -46.7100054, "latitude": -23.8326149}, {"item_id": 8556169, "category": ["attraction"], "name": "Ambulatório de Especialidades Jardim Cliper", "longitude": -46.7062, "latitude": -23.7238219}, {"item_id": 8556208, "category": ["attraction"], "name": "48º DP - Cidade Dutra - Polícia Civil - Distrito Policial", "longitude": -46.695734, "latitude": -23.7123406}, {"item_id": 8556505, "category": ["attraction"], "name": "50º Batalhão de Polícia Militar Metropolitano PMESP", "longitude": -46.7091608, "latitude": -23.7417377}, {"item_id": 760105496, "category": ["theme_park"], "name": "Aquario", "longitude": -46.445368, "latitude": -23.5724728}, {"item_id": 4732250495, "category": ["theme_park"], "name": "Parque da Mônica", "longitude": -46.6990811, "latitude": -23.6771412}, {"item_id": 2197550244, "category": ["viewpoint"], "name": "Mirador Pedra Grande", "longitude": -46.6352132, "latitude": -23.4363627}, {"item_id": 2418740022, "category": ["viewpoint"], "name": "Mirante", "longitude": -46.6194053, "latitude": -23.6398318}, {"item_id": 2428250462, "category": ["viewpoint"], "name": "Bourbom", "longitude": -46.6813574, "latitude": -23.5258924}]